[
  {
    "name": "Dutch Farm",
    "description": "Donec ut sollicitudin dolor. Sed a dictum erat, eget vulputate nisi. Nunc ac quam at tellus consequat sagittis.",
    "coordinates": { "lat": 52.30879864206189, "lon": 5.84656215947842 },
    "story": "Our goal is to restore the health and vitality of the land and to nourish those who eat of its bounty",
    "image": "https://images.pexels.com/photos/753869/pexels-photo-753869.jpeg?auto=compress&cs=tinysrgb&dpr=2&h=750&w=1260"
  },
  {
    "name": "Modern Farm",
    "description": "Donec vehicula a leo ut auctor. Cras sagittis felis et sem ultrices, a rhoncus purus rutrum. Sed at ultricies nibh, rhoncus congue enim.",
    "coordinates": { "lat": 51.64575274473481, "lon": 5.094509898367651 },
    "story": "Our farm produces the best vegetables in the whole Netherlands",
    "image": "https://images.pexels.com/photos/753869/pexels-photo-753869.jpeg?auto=compress&cs=tinysrgb&dpr=2&h=750&w=1260"
  },
  {
    "name": "Toon Farm Family",
    "description": "Nunc sed vehicula nisl. Donec eleifend dapibus ultrices. Nunc vitae eros eget neque pharetra tincidunt at eget odio.",
    "coordinates": { "lat": 52.77989794057259, "lon": 5.967647085041341 },
    "story": "I am a third generation farmer. The farm remains my life's work that brings me joy",
    "image": "https://images.pexels.com/photos/753869/pexels-photo-753869.jpeg?auto=compress&cs=tinysrgb&dpr=2&h=750&w=1260"
  },
  {
    "name": "West Farm",
    "description": "Aliquam at ligula orci. Donec velit quam, faucibus vel ornare et, lacinia quis dolor.",
    "coordinates": { "lat": 50.90017194519338, "lon": 5.818126158157645 },
    "story": "We are happy to share with others fresh fruits from our gardens",
    "image": "https://images.pexels.com/photos/753869/pexels-photo-753869.jpeg?auto=compress&cs=tinysrgb&dpr=2&h=750&w=1260"
  },
  {
    "name": "WDF",
    "description": "Class aptent taciti sociosqu ad litora torquent per conubia nostra, per inceptos himenaeos. Donec dictum pharetra nulla quis congue.",
    "coordinates": { "lat": 52.753976422302244, "lon": 4.838149714833168 },
    "story": "We use renewable energy sources in the production of our products",
    "image": "https://images.pexels.com/photos/753869/pexels-photo-753869.jpeg?auto=compress&cs=tinysrgb&dpr=2&h=750&w=1260"
  },
  {
    "name": "Cheese Farm",
    "description": "Quisque ullamcorper diam id risus dignissim consequat. Phasellus fermentum risus eu metus varius volutpat.",
    "coordinates": { "lat": 52.07653103380374, "lon": 6.031978704393116 },
    "story": "We try to meet the highest quality in the production of our products",
    "image": "https://images.pexels.com/photos/753869/pexels-photo-753869.jpeg?auto=compress&cs=tinysrgb&dpr=2&h=750&w=1260"
  }
]
